{"business_id": "rncjoVoEFUJGCUoC1JgnUA", "full_address": "8466 W Peoria Ave\nSte 6\nPeoria, AZ 85345", "open": true, "categories": ["Accountants", "Professional Services", "Tax Services", "Financial Services"], "city": "Peoria", "review_count": 3, "name": "Peoria Income Tax Service", "neighborhoods": [], "longitude": -112.241596, "state": "AZ", "stars": 5.0, "latitude": 33.581867000000003, "type": "business"}
{"business_id": "0FNFSzCFP_rGUoJx8W7tJg", "full_address": "2149 W Wood Dr\nPhoenix, AZ 85029", "open": true, "categories": ["Sporting Goods", "Bikes", "Shopping"], "city": "Phoenix", "review_count": 5, "name": "Bike Doctor", "neighborhoods": [], "longitude": -112.10593299999999, "state": "AZ", "stars": 5.0, "latitude": 33.604053999999998, "type": "business"}
{"business_id": "3f_lyB6vFK48ukH6ScvLHg", "full_address": "1134 N Central Ave\nPhoenix, AZ 85004", "open": true, "categories": [], "city": "Phoenix", "review_count": 4, "name": "Valley Permaculture Alliance", "neighborhoods": [], "longitude": -112.07393329999999, "state": "AZ", "stars": 5.0, "latitude": 33.460525799999999, "type": "business"}
